[
  {
    "nombre": "Vista Pacífico - San Isidro",
    "distrito": "San Isidro",
    "lat": -12.1022,
    "lon": -77.0362,
    "direccion": "Avenida San Isidro #100",
    "precio": "$160,000",
    "link": "https://urbania.pe/buscar/proyecto/san-isidro-1"
  },
  {
    "nombre": "Altos de Lima - San Isidro",
    "distrito": "San Isidro",
    "lat": -12.1019,
    "lon": -77.0359,
    "direccion": "Avenida San Isidro #200",
    "precio": "$170,000",
    "link": "https://urbania.pe/buscar/proyecto/san-isidro-2"
  },
  {
    "nombre": "Torres del Sol - San Isidro",
    "distrito": "San Isidro",
    "lat": -12.1016,
    "lon": -77.0356,
    "direccion": "Avenida San Isidro #300",
    "precio": "$180,000",
    "link": "https://urbania.pe/buscar/proyecto/san-isidro-3"
  },
  {
    "nombre": "Residencial El Olivar - San Isidro",
    "distrito": "San Isidro",
    "lat": -12.1013,
    "lon": -77.0353,
    "direccion": "Avenida San Isidro #400",
    "precio": "$190,000",
    "link": "https://urbania.pe/buscar/proyecto/san-isidro-4"
  },
  {
    "nombre": "Altos de Lima - San Isidro",
    "distrito": "San Isidro",
    "lat": -12.101,
    "lon": -77.035,
    "direccion": "Avenida San Isidro #500",
    "precio": "$200,000",
    "link": "https://urbania.pe/buscar/proyecto/san-isidro-5"
  },
  {
    "nombre": "Alameda Real - San Isidro",
    "distrito": "San Isidro",
    "lat": -12.1007,
    "lon": -77.0347,
    "direccion": "Avenida San Isidro #600",
    "precio": "$210,000",
    "link": "https://urbania.pe/buscar/proyecto/san-isidro-6"
  },
  {
    "nombre": "Torre Miraflores - San Isidro",
    "distrito": "San Isidro",
    "lat": -12.1004,
    "lon": -77.0344,
    "direccion": "Avenida San Isidro #700",
    "precio": "$220,000",
    "link": "https://urbania.pe/buscar/proyecto/san-isidro-7"
  },
  {
    "nombre": "Panoramic Magdalena - San Isidro",
    "distrito": "San Isidro",
    "lat": -12.1001,
    "lon": -77.0341,
    "direccion": "Avenida San Isidro #800",
    "precio": "$230,000",
    "link": "https://urbania.pe/buscar/proyecto/san-isidro-8"
  },
  {
    "nombre": "Edificio Costa Verde - San Isidro",
    "distrito": "San Isidro",
    "lat": -12.0998,
    "lon": -77.0338,
    "direccion": "Avenida San Isidro #900",
    "precio": "$240,000",
    "link": "https://urbania.pe/buscar/proyecto/san-isidro-9"
  },
  {
    "nombre": "City Heights - San Isidro",
    "distrito": "San Isidro",
    "lat": -12.0995,
    "lon": -77.0335,
    "direccion": "Avenida San Isidro #1000",
    "precio": "$250,000",
    "link": "https://urbania.pe/buscar/proyecto/san-isidro-10"
  },
  {
    "nombre": "Vista Pacífico - Miraflores",
    "distrito": "Miraflores",
    "lat": -12.1209,
    "lon": -77.0298,
    "direccion": "Avenida Miraflores #100",
    "precio": "$160,000",
    "link": "https://urbania.pe/buscar/proyecto/miraflores-1"
  },
  {
    "nombre": "City Heights - Miraflores",
    "distrito": "Miraflores",
    "lat": -12.1206,
    "lon": -77.0295,
    "direccion": "Avenida Miraflores #200",
    "precio": "$170,000",
    "link": "https://urbania.pe/buscar/proyecto/miraflores-2"
  },
  {
    "nombre": "Parques de San Isidro - Miraflores",
    "distrito": "Miraflores",
    "lat": -12.1203,
    "lon": -77.0292,
    "direccion": "Avenida Miraflores #300",
    "precio": "$180,000",
    "link": "https://urbania.pe/buscar/proyecto/miraflores-3"
  },
  {
    "nombre": "Aurora Park - Miraflores",
    "distrito": "Miraflores",
    "lat": -12.12,
    "lon": -77.0289,
    "direccion": "Avenida Miraflores #400",
    "precio": "$190,000",
    "link": "https://urbania.pe/buscar/proyecto/miraflores-4"
  },
  {
    "nombre": "Urban Green - Miraflores",
    "distrito": "Miraflores",
    "lat": -12.1197,
    "lon": -77.0286,
    "direccion": "Avenida Miraflores #500",
    "precio": "$200,000",
    "link": "https://urbania.pe/buscar/proyecto/miraflores-5"
  },
  {
    "nombre": "Nova Lima - Miraflores",
    "distrito": "Miraflores",
    "lat": -12.1194,
    "lon": -77.0283,
    "direccion": "Avenida Miraflores #600",
    "precio": "$210,000",
    "link": "https://urbania.pe/buscar/proyecto/miraflores-6"
  },
  {
    "nombre": "Residencial El Olivar - Miraflores",
    "distrito": "Miraflores",
    "lat": -12.1191,
    "lon": -77.028,
    "direccion": "Avenida Miraflores #700",
    "precio": "$220,000",
    "link": "https://urbania.pe/buscar/proyecto/miraflores-7"
  },
  {
    "nombre": "Monteverde - Miraflores",
    "distrito": "Miraflores",
    "lat": -12.1188,
    "lon": -77.0277,
    "direccion": "Avenida Miraflores #800",
    "precio": "$230,000",
    "link": "https://urbania.pe/buscar/proyecto/miraflores-8"
  },
  {
    "nombre": "City Heights - Miraflores",
    "distrito": "Miraflores",
    "lat": -12.1185,
    "lon": -77.0274,
    "direccion": "Avenida Miraflores #900",
    "precio": "$240,000",
    "link": "https://urbania.pe/buscar/proyecto/miraflores-9"
  },
  {
    "nombre": "Residencial El Olivar - Miraflores",
    "distrito": "Miraflores",
    "lat": -12.1182,
    "lon": -77.0271,
    "direccion": "Avenida Miraflores #1000",
    "precio": "$250,000",
    "link": "https://urbania.pe/buscar/proyecto/miraflores-10"
  },
  {
    "nombre": "Residencial El Olivar - Barranco",
    "distrito": "Barranco",
    "lat": -12.1429,
    "lon": -77.0199,
    "direccion": "Avenida Barranco #100",
    "precio": "$160,000",
    "link": "https://urbania.pe/buscar/proyecto/barranco-1"
  },
  {
    "nombre": "Monteverde - Barranco",
    "distrito": "Barranco",
    "lat": -12.1426,
    "lon": -77.0196,
    "direccion": "Avenida Barranco #200",
    "precio": "$170,000",
    "link": "https://urbania.pe/buscar/proyecto/barranco-2"
  },
  {
    "nombre": "Aurora Park - Barranco",
    "distrito": "Barranco",
    "lat": -12.1423,
    "lon": -77.0193,
    "direccion": "Avenida Barranco #300",
    "precio": "$180,000",
    "link": "https://urbania.pe/buscar/proyecto/barranco-3"
  },
  {
    "nombre": "Urban Green - Barranco",
    "distrito": "Barranco",
    "lat": -12.142,
    "lon": -77.019,
    "direccion": "Avenida Barranco #400",
    "precio": "$190,000",
    "link": "https://urbania.pe/buscar/proyecto/barranco-4"
  },
  {
    "nombre": "Nova Lima - Barranco",
    "distrito": "Barranco",
    "lat": -12.1417,
    "lon": -77.0187,
    "direccion": "Avenida Barranco #500",
    "precio": "$200,000",
    "link": "https://urbania.pe/buscar/proyecto/barranco-5"
  },
  {
    "nombre": "Sky Lima - Barranco",
    "distrito": "Barranco",
    "lat": -12.1414,
    "lon": -77.0184,
    "direccion": "Avenida Barranco #600",
    "precio": "$210,000",
    "link": "https://urbania.pe/buscar/proyecto/barranco-6"
  },
  {
    "nombre": "Altos de Lima - Barranco",
    "distrito": "Barranco",
    "lat": -12.1411,
    "lon": -77.0181,
    "direccion": "Avenida Barranco #700",
    "precio": "$220,000",
    "link": "https://urbania.pe/buscar/proyecto/barranco-7"
  },
  {
    "nombre": "Monteverde - Barranco",
    "distrito": "Barranco",
    "lat": -12.1408,
    "lon": -77.0178,
    "direccion": "Avenida Barranco #800",
    "precio": "$230,000",
    "link": "https://urbania.pe/buscar/proyecto/barranco-8"
  },
  {
    "nombre": "Jardines de Surco - Barranco",
    "distrito": "Barranco",
    "lat": -12.1405,
    "lon": -77.0175,
    "direccion": "Avenida Barranco #900",
    "precio": "$240,000",
    "link": "https://urbania.pe/buscar/proyecto/barranco-9"
  },
  {
    "nombre": "Residencial El Olivar - Barranco",
    "distrito": "Barranco",
    "lat": -12.1402,
    "lon": -77.0172,
    "direccion": "Avenida Barranco #1000",
    "precio": "$250,000",
    "link": "https://urbania.pe/buscar/proyecto/barranco-10"
  },
  {
    "nombre": "Altos de Lima - Santiago de Surco",
    "distrito": "Santiago de Surco",
    "lat": -12.1497,
    "lon": -76.9897,
    "direccion": "Avenida Santiago de Surco #100",
    "precio": "$160,000",
    "link": "https://urbania.pe/buscar/proyecto/santiago-de-surco-1"
  },
  {
    "nombre": "Vista Pacífico - Santiago de Surco",
    "distrito": "Santiago de Surco",
    "lat": -12.1494,
    "lon": -76.9894,
    "direccion": "Avenida Santiago de Surco #200",
    "precio": "$170,000",
    "link": "https://urbania.pe/buscar/proyecto/santiago-de-surco-2"
  },
  {
    "nombre": "Monteverde - Santiago de Surco",
    "distrito": "Santiago de Surco",
    "lat": -12.1491,
    "lon": -76.9891,
    "direccion": "Avenida Santiago de Surco #300",
    "precio": "$180,000",
    "link": "https://urbania.pe/buscar/proyecto/santiago-de-surco-3"
  },
  {
    "nombre": "Torre Miraflores - Santiago de Surco",
    "distrito": "Santiago de Surco",
    "lat": -12.1488,
    "lon": -76.9888,
    "direccion": "Avenida Santiago de Surco #400",
    "precio": "$190,000",
    "link": "https://urbania.pe/buscar/proyecto/santiago-de-surco-4"
  },
  {
    "nombre": "City Heights - Santiago de Surco",
    "distrito": "Santiago de Surco",
    "lat": -12.1485,
    "lon": -76.9885,
    "direccion": "Avenida Santiago de Surco #500",
    "precio": "$200,000",
    "link": "https://urbania.pe/buscar/proyecto/santiago-de-surco-5"
  },
  {
    "nombre": "Terrazas de Barranco - Santiago de Surco",
    "distrito": "Santiago de Surco",
    "lat": -12.1482,
    "lon": -76.9882,
    "direccion": "Avenida Santiago de Surco #600",
    "precio": "$210,000",
    "link": "https://urbania.pe/buscar/proyecto/santiago-de-surco-6"
  },
  {
    "nombre": "Pacific View - Santiago de Surco",
    "distrito": "Santiago de Surco",
    "lat": -12.1479,
    "lon": -76.9879,
    "direccion": "Avenida Santiago de Surco #700",
    "precio": "$220,000",
    "link": "https://urbania.pe/buscar/proyecto/santiago-de-surco-7"
  },
  {
    "nombre": "City Heights - Santiago de Surco",
    "distrito": "Santiago de Surco",
    "lat": -12.1476,
    "lon": -76.9876,
    "direccion": "Avenida Santiago de Surco #800",
    "precio": "$230,000",
    "link": "https://urbania.pe/buscar/proyecto/santiago-de-surco-8"
  },
  {
    "nombre": "Parques de San Isidro - Santiago de Surco",
    "distrito": "Santiago de Surco",
    "lat": -12.1473,
    "lon": -76.9873,
    "direccion": "Avenida Santiago de Surco #900",
    "precio": "$240,000",
    "link": "https://urbania.pe/buscar/proyecto/santiago-de-surco-9"
  },
  {
    "nombre": "Monteverde - Santiago de Surco",
    "distrito": "Santiago de Surco",
    "lat": -12.147,
    "lon": -76.987,
    "direccion": "Avenida Santiago de Surco #1000",
    "precio": "$250,000",
    "link": "https://urbania.pe/buscar/proyecto/santiago-de-surco-10"
  },
  {
    "nombre": "Altos de Lima - Magdalena",
    "distrito": "Magdalena",
    "lat": -12.093,
    "lon": -77.0647,
    "direccion": "Avenida Magdalena #100",
    "precio": "$160,000",
    "link": "https://urbania.pe/buscar/proyecto/magdalena-1"
  },
  {
    "nombre": "Urban Green - Magdalena",
    "distrito": "Magdalena",
    "lat": -12.0927,
    "lon": -77.0644,
    "direccion": "Avenida Magdalena #200",
    "precio": "$170,000",
    "link": "https://urbania.pe/buscar/proyecto/magdalena-2"
  },
  {
    "nombre": "Zafiro - Magdalena",
    "distrito": "Magdalena",
    "lat": -12.0924,
    "lon": -77.0641,
    "direccion": "Avenida Magdalena #300",
    "precio": "$180,000",
    "link": "https://urbania.pe/buscar/proyecto/magdalena-3"
  },
  {
    "nombre": "Parques de San Isidro - Magdalena",
    "distrito": "Magdalena",
    "lat": -12.0921,
    "lon": -77.0638,
    "direccion": "Avenida Magdalena #400",
    "precio": "$190,000",
    "link": "https://urbania.pe/buscar/proyecto/magdalena-4"
  },
  {
    "nombre": "Terrazas de Barranco - Magdalena",
    "distrito": "Magdalena",
    "lat": -12.0918,
    "lon": -77.0635,
    "direccion": "Avenida Magdalena #500",
    "precio": "$200,000",
    "link": "https://urbania.pe/buscar/proyecto/magdalena-5"
  },
  {
    "nombre": "Terrazas de Barranco - Magdalena",
    "distrito": "Magdalena",
    "lat": -12.0915,
    "lon": -77.0632,
    "direccion": "Avenida Magdalena #600",
    "precio": "$210,000",
    "link": "https://urbania.pe/buscar/proyecto/magdalena-6"
  },
  {
    "nombre": "Parques de San Isidro - Magdalena",
    "distrito": "Magdalena",
    "lat": -12.0912,
    "lon": -77.0629,
    "direccion": "Avenida Magdalena #700",
    "precio": "$220,000",
    "link": "https://urbania.pe/buscar/proyecto/magdalena-7"
  },
  {
    "nombre": "Jardines de Surco - Magdalena",
    "distrito": "Magdalena",
    "lat": -12.0909,
    "lon": -77.0626,
    "direccion": "Avenida Magdalena #800",
    "precio": "$230,000",
    "link": "https://urbania.pe/buscar/proyecto/magdalena-8"
  },
  {
    "nombre": "Aurora Park - Magdalena",
    "distrito": "Magdalena",
    "lat": -12.0906,
    "lon": -77.0623,
    "direccion": "Avenida Magdalena #900",
    "precio": "$240,000",
    "link": "https://urbania.pe/buscar/proyecto/magdalena-9"
  },
  {
    "nombre": "Torre Miraflores - Magdalena",
    "distrito": "Magdalena",
    "lat": -12.0903,
    "lon": -77.062,
    "direccion": "Avenida Magdalena #1000",
    "precio": "$250,000",
    "link": "https://urbania.pe/buscar/proyecto/magdalena-10"
  }
]